     3.04           OBSERVATION DATA    G                   RINEX VERSION / TYPE
Mdb2Rinex 5.6.46W                       20170714 232753 UTC PGM / RUN BY / DATE 
gfzrnx-1.13-7761    FILE PROCESSING     20240528 105715 UTC COMMENT             
2672                                                        MARKER NAME         
2672                                                        MARKER NUMBER       
                                                            OBSERVER / AGENCY   
472672              LEICA GX1230GG      7.53/3.054          REC # / TYPE / VERS 
                    LEIAX1202GG     NONE                    ANT # / TYPE        
        0.0670        0.0000        0.0000                  ANTENNA: DELTA H/E/N
  3965001.0631 -4392463.8330 -2374512.5318    APPR FROM RCV COMMENT
  3965001.0789 -4392463.1685 -2374512.5743                  APPROX POSITION XYZ
G    8 C1C C2W D1C D2W L1C L2W S1C S2W                      SYS / # / OBS TYPES 
SNR is mapped to RINEX snr flag value [1-9]                 COMMENT             
LX:     < 12dBHz -> 1; 12-17dBHz -> 2; 18-23dBHz -> 3       COMMENT             
       24-29dBHz -> 4; 30-35dBHz -> 5; 36-41dBHz -> 6       COMMENT             
       42-47dBHz -> 7; 48-53dBHz -> 8; >= 54dBHz -> 9       COMMENT             
DBHZ                                                        SIGNAL STRENGTH UNIT
     0                                                      RCV CLOCK OFFS APPL 
G L1C                                                       SYS / PHASE SHIFT   
G L2W                                                       SYS / PHASE SHIFT   
    18    18  1929     7                                    LEAP SECONDS        
     6                                                      # OF SATELLITES     
   G18   121   121   121   121   121   121   121   121      PRN / # OF OBS      
   G20   121   121   121   121   121   121   121   121      PRN / # OF OBS      
   G21   121   121   121   121   121   121   121   121      PRN / # OF OBS      
   G25   121   121   121   121   121   121   121   121      PRN / # OF OBS      
   G26   121   121   121   121   121   121   121   121      PRN / # OF OBS      
   G29   121   121   121   121   121   121   121   121      PRN / # OF OBS      
    15.000                                                  INTERVAL            
  2017     3    29    13     5    0.0000000     GPS         TIME OF FIRST OBS   
  2017     3    29    13    35    0.0000000     GPS         TIME OF LAST OBS    
                                                            END OF HEADER      
> 2017 03 29 13 05 00.0000000  0  6
G18  22541600.620    22541601.520        -674.698        -674.698   118456936.93107  92304088.65706        47.000          38.000
G20  20705902.760    20705902.180         131.547         131.547   108810254.78208  84787211.15806        48.750          39.750
G21  21198534.720    21198533.980        -230.601        -230.600   111399057.43208  86804447.64107        49.000          43.500
G25  20581969.940    20581972.080         282.959         282.960   108158978.10108  84279730.71407        50.250          46.250
G26  23943670.440    23943674.340        -620.257        -620.257   125824838.90207  98045365.93806        44.000          37.250
G29  21205311.660    21205311.560         -71.098         -71.097   111434665.52308  86832207.42107        50.750          43.000
> 2017 03 29 13 05 15.0000000  0  6
G18  22531484.820    22531485.800        -674.077        -674.075   118403778.45808  92262666.47106        48.000          38.000
G20  20707889.140    20707888.580         133.327         133.327   108820693.47908  84795345.20706        48.500          41.000
G21  21195084.160    21195083.460        -229.443        -229.443   111380924.78508  86790318.29507        49.250          44.250
G25  20586227.860    20586230.060         284.797         284.798   108181353.62408  84297166.18207        50.500          46.750
G26  23934371.820    23934375.760        -619.519        -619.518   125775974.81306  98007290.00806        41.500          37.750
G29  21204247.880    21204247.760         -70.718         -70.717   111429075.45308  86827851.51807        50.500          42.750
> 2017 03 29 13 05 30.0000000  0  6
G18  22521376.820    22521377.860        -673.600        -673.600   118350660.79908  92221276.09306        48.000          38.250
G20  20709900.880    20709900.380         134.978         134.979   108831265.47208  84803583.12906        48.750          41.250
G21  21191649.480    21191648.840        -228.431        -228.429   111362875.62208  86776254.01007        49.500          43.500
G25  20590511.680    20590513.960         286.479         286.480   108203865.28208  84314707.71507        50.500          46.500
G26  23925082.160    23925086.260        -618.954        -618.954   125727158.54507  97969251.37606        42.250          39.750
G29  21203188.400    21203188.300         -70.478         -70.477   111423507.99308  86823513.22907        50.500          43.000
> 2017 03 29 13 05 45.0000000  0  6
G18  22511276.400    22511277.380        -673.099        -673.099   118297582.64708  92179916.51506        48.250          38.500
G20  20711937.600    20711937.120         136.615         136.616   108841968.73408  84811923.32406        48.250          41.250
G21  21188230.340    21188229.760        -227.396        -227.396   111344908.09608  86762253.33407        49.250          43.500
G25  20594821.040    20594823.380         288.160         288.161   108226511.04308  84332353.75307        50.500          46.500
G26  23915801.300    23915805.540        -618.367        -618.367   125678388.57907  97931248.80506        43.000          37.750
G29  21202132.860    21202132.840         -70.216         -70.215   111417961.42108  86819191.19907        50.250          44.000
> 2017 03 29 13 06 00.0000000  0  6
G18  22501183.200    22501184.000        -672.866        -672.866   118244542.21308  92138586.32106        48.500          37.250
G20  20713998.880    20713998.420         138.026         138.027   108852800.95708  84820364.02806        48.500          41.750
G21  21184826.300    21184825.780        -226.667        -226.666   111327019.94508  86748314.50907        49.750          43.750
G25  20599155.480    20599157.900         289.560         289.560   108249288.63908  84350102.51907        50.500          47.000
G26  23906528.940    23906533.320        -618.111        -618.112   125629663.02507  97893280.88806        43.000          37.750
G29  21201080.920    21201080.980         -70.231         -70.230   111412433.77508  86814883.91607        50.000          44.500
> 2017 03 29 13 06 15.0000000  0  6
G18  22491101.440    22491101.940        -672.118        -672.118   118191561.66808  92097302.81206        48.500          37.250
G20  20716088.840    20716088.400         139.943         139.944   108863783.86608  84828922.13407        48.500          42.000
G21  21181441.540    21181441.040        -225.354        -225.353   111309232.88508  86734454.47007        49.750          43.750
G25  20603519.120    20603521.620         291.537         291.538   108272219.68808  84367970.85607        50.750          46.500
G26  23897269.320    23897273.840        -617.260        -617.259   125581004.12707  97855364.88006        43.000          38.000
G29  21200036.800    21200036.940         -69.711         -69.710   111406947.04508  86810608.51507        50.000          44.500
> 2017 03 29 13 06 30.0000000  0  6
G18  22481024.780    22481024.880        -671.579        -671.579   118138607.72907  92056040.02306        47.000          39.000
G20  20718201.080    20718200.640         141.624         141.625   108874883.72208  84837571.36707        48.000          42.500
G21  21178069.640    21178069.180        -224.285        -224.284   111291513.37308  86720647.06707        49.250          43.750
G25  20607905.540    20607908.080         293.266         293.267   108295270.42008  84385932.45307        50.750          46.250
G26  23888016.100    23888020.800        -616.557        -616.556   125532378.55807  97817474.84306        42.500          39.000
G29  21198994.060    21198994.320         -69.407         -69.406   111401467.64308  86806338.83307        50.000          44.750
> 2017 03 29 13 06 45.0000000  0  6
G18  22470957.500    22470957.280        -670.855        -670.855   118085703.28207  92014815.79306        46.750          38.750
G20  20720339.800    20720339.380         143.465         143.466   108886122.76908  84846329.06007        48.250          42.000
G21  21174714.800    21174714.360        -223.086        -223.086   111273883.54608  86706909.54807        49.250          43.250
G25  20612319.000    20612321.560         295.128         295.129   108318463.08608  84404004.64207        51.250          46.500
G26  23878773.540    23878778.420        -615.863        -615.862   125483808.98206  97779628.39706        41.750          39.750
G29  21197957.040    21197957.420         -68.951         -68.950   111396018.21108  86802092.50207        50.500          44.500
> 2017 03 29 13 07 00.0000000  0  6
G18  22460899.100    22460898.740        -670.239        -670.238   118032846.08308  91973628.35706        48.000          39.000
G20  20722504.520    20722504.120         145.160         145.161   108897498.41008  84855193.18107        48.500          42.250
G21  21171376.540    21171376.140        -222.028        -222.028   111256340.94508  86693239.99207        49.000          43.250
G25  20616758.960    20616761.520         296.837         296.839   108341795.01308  84422185.34607        51.250          46.500
G26  23869541.220    23869546.260        -615.143        -615.142   125435293.27607  97741823.97706        42.500          37.750
G29  21196925.280    21196925.760         -68.653         -68.652   111390596.30508  86797867.61507        50.750          44.500
> 2017 03 29 13 07 15.0000000  0  6
G18  22450848.840    22450848.420        -669.825        -669.826   117980031.47108  91932474.12406        48.500          39.500
G20  20724694.300    20724693.920         146.754         146.755   108909005.74708  84864159.93007        48.500          43.000
G21  21168053.880    21168053.520        -221.061        -221.059   111238880.51908  86679634.45007        48.500          43.000
G25  20621224.480    20621227.020         298.471         298.472   108365261.18708  84440470.66007        51.250          46.500
G26  23860318.340    23860323.440        -614.573        -614.573   125386826.84607  97704057.96306        43.500          39.250
G29  21195897.900    21195898.440         -68.419         -68.418   111385197.23608  86793660.53207        50.750          44.500
> 2017 03 29 13 07 30.0000000  0  6
G18  22440808.560    22440808.100        -669.281        -669.280   117927269.24707  91891360.69406        47.500          39.000
G20  20726910.920    20726910.500         148.418         148.419   108920653.92508  84873236.40707        48.250          43.000
G21  21164748.540    21164748.280        -220.005        -220.004   111221511.41608  86666100.07907        48.250          43.500
G25  20625717.280    20625719.760         300.162         300.163   108388870.64808  84458867.62607        51.000          46.250
G26  23851106.720    23851111.780        -613.984        -613.984   125338419.28807  97666337.80806        44.500          38.000
G29  21194876.620    21194877.200         -68.114         -68.113   111379830.24508  86789478.45907        50.750          44.250
> 2017 03 29 13 07 45.0000000  0  6
G18  22430772.020    22430771.560        -668.791        -668.790   117874526.70507  91850262.62006        47.500          39.750
G20  20729148.020    20729147.580         150.049         150.049   108932409.78608  84882396.80807        48.500          43.250
G21  21161454.260    21161454.160        -219.044        -219.042   111204200.62708  86652611.14307        49.000          43.500
G25  20630231.040    20630233.480         301.804         301.805   108412590.34308  84477350.48707        51.000          45.750
G26  23841900.160    23841905.100        -613.437        -613.437   125290038.00807  97628638.15206        44.000          39.750
G29  21193855.260    21193855.860         -67.885         -67.885   111374462.73108  86785295.97807        50.750          44.250
> 2017 03 29 13 08 00.0000000  0  6
G18  22420746.220    22420745.760        -668.092        -668.092   117821840.64408  91809208.54706        48.000          39.750
G20  20731412.560    20731412.100         151.823         151.824   108944309.83808  84891669.55907        48.500          43.250
G21  21158178.080    21158178.080        -217.886        -217.884   111186984.64508  86639196.09207        49.250          43.000
G25  20634772.700    20634775.060         303.649         303.650   108436456.63308  84495947.58007        51.000          45.000
G26  23832705.640    23832710.420        -612.678        -612.678   125241719.84807  97590987.65306        42.750          40.000
G29  21192840.760    21192841.360         -67.485         -67.484   111369131.32108  86781141.61907        50.500          44.000
> 2017 03 29 13 08 15.0000000  0  6
G18  22410729.380    22410728.980        -667.506        -667.506   117769201.72607  91768191.22006        47.750          39.500
G20  20733702.660    20733702.200         153.505         153.505   108956344.27908  84901047.02507        48.750          43.750
G21  21154918.160    21154918.220        -216.794        -216.794   111169853.91008  86625847.47507        49.250          43.250
G25  20639340.380    20639342.620         305.363         305.364   108460459.65908  84514651.21607        50.750          45.250
G26  23823521.320    23823526.000        -611.958        -611.957   125193455.54807  97553379.11306        43.750          39.000
G29  21191831.300    21191831.900         -67.131         -67.129   111363826.53608  86777008.01207        50.000          44.250
> 2017 03 29 13 08 30.0000000  0  6
G18  22400721.120    22400720.780        -666.889        -666.888   117716607.91207  91727209.03806        47.750          39.750
G20  20736017.840    20736017.380         155.209         155.210   108968510.40308  84910527.11007        48.750          43.000
G21  21151674.000    21151674.040        -215.711        -215.711   111152805.78708  86612563.21907        49.000          43.250
G25  20643933.560    20643935.680         307.084         307.085   108484596.79408  84533459.34607        50.750          45.500
G26  23814346.820    23814351.400        -611.275        -611.275   125145242.83307  97515810.78506        44.250          38.750
G29  21190826.400    21190827.020         -66.840         -66.839   111358545.94308  86772893.24407        50.250          43.500
> 2017 03 29 13 08 45.0000000  0  6
G18  22390721.840    22390721.540        -666.308        -666.308   117664061.27308  91686263.61906        48.500          38.250
G20  20738358.360    20738357.900         156.894         156.895   108980809.78008  84920111.01507        49.000          43.250
G21  21148445.880    21148445.840        -214.674        -214.674   111135841.79108  86599344.52107        49.250          42.750
G25  20648552.540    20648554.580         308.803         308.804   108508869.56108  84552373.17007        50.500          45.250
G26  23805182.500    23805187.020        -610.595        -610.595   125097083.75707  97478284.25006        44.000          38.500
G29  21189826.440    21189827.060         -66.487         -66.486   111353291.38108  86768798.77707        50.250          43.250
> 2017 03 29 13 09 00.0000000  0  6
G18  22380731.020    22380730.660        -665.828        -665.828   117611558.78608  91645352.61706        48.500          36.750
G20  20740723.580    20740723.100         158.460         158.461   108993238.86908  84929796.00107        49.000          43.000
G21  21145233.140    21145232.980        -213.721        -213.720   111118958.45508  86586188.68307        49.750          43.500
G25  20653196.640    20653198.640         310.395         310.395   108533274.35808  84571389.88107        50.500          45.500
G26  23796027.800    23796032.320        -610.072        -610.071   125048975.23707  97440797.10406        42.500          40.500
G29  21188830.820    21188831.440         -66.271         -66.271   111348059.63808  86764722.08507        50.000          43.500
> 2017 03 29 13 09 15.0000000  0  6
G18  22370749.300    22370748.760        -665.085        -665.085   117559104.01808  91604478.78406        48.250          37.000
G20  20743114.080    20743113.620         160.263         160.263   109005800.95708  84939584.62907        49.000          43.250
G21  21142036.420    21142036.140        -212.539        -212.539   111102159.09508  86573098.27707        49.750          44.000
G25  20657866.480    20657868.460         312.228         312.228   108557814.41808  84590512.00107        50.250          45.750
G26  23786883.340    23786887.960        -609.235        -609.235   125000921.04607  97403352.29806        42.750          41.000
G29  21187840.220    21187840.860         -65.840         -65.840   111342854.33608  86760665.99107        50.000          43.250
> 2017 03 29 13 09 30.0000000  0  6
G18  22360777.200    22360776.460        -664.466        -664.466   117506699.80108  91563644.34506        48.000          38.000
G20  20745530.360    20745529.940         161.949         161.949   109018498.51308  84949478.81607        49.250          43.500
G21  21138856.180    21138855.780        -211.464        -211.463   111085446.14808  86560075.19507        49.500          44.000
G25  20662562.460    20662564.500         313.952         313.953   108582492.04808  84609741.31607        50.500          45.750
G26  23777749.720    23777754.460        -608.534        -608.534   124952923.90907  97365951.95006        43.500          40.000
G29  21186855.160    21186855.800         -65.468         -65.467   111337678.11608  86756632.56607        50.250          43.250
> 2017 03 29 13 09 45.0000000  0  6
G18  22350814.360    22350813.500        -663.855        -663.854   117454344.41307  91522847.96606        47.000          37.000
G20  20747971.980    20747971.560         163.643         163.643   109031329.18108  84959476.72307        49.250          43.500
G21  21135691.900    21135691.460        -210.397        -210.396   111068817.30108  86547117.64107        49.000          44.000
G25  20667284.200    20667286.260         315.674         315.674   108607304.93308  84629076.01107        50.500          45.250
G26  23768626.620    23768631.400        -607.817        -607.817   124904982.06007  97328594.68206        43.750          39.000
G29  21185875.240    21185875.860         -65.123         -65.123   111332528.83808  86752620.13807        50.750          43.500
> 2017 03 29 13 10 00.0000000  0  6
G18  22340860.620    22340859.780        -663.317        -663.301   117402037.30907  91482089.18106        46.250          39.250
G20  20750438.700    20750438.300         165.248         165.249   109044291.80108  84969577.45107        49.500          43.500
G21  21132543.400    21132542.960        -209.406        -209.405   111052271.58808  86534224.87007        49.250          44.250
G25  20672031.420    20672033.560         317.280         317.281   108632251.90608  84648515.19407        50.250          45.500
G26  23759513.900    23759518.700        -607.178        -607.177   124857094.82707  97291279.97306        44.000          38.500
G29  21184900.320    21184900.900         -64.863         -64.863   111327405.58308  86748627.99107        51.000          43.250
> 2017 03 29 13 10 15.0000000  0  6
G18  22330915.380    22330914.720        -662.713        -662.712   117349775.52907  91441365.68406        46.500          40.000
G20  20752929.920    20752929.540         166.904         166.905   109057383.23208  84979778.56407        49.500          44.250
G21  21129410.020    21129409.600        -208.373        -208.372   111035805.38808  86521394.04707        49.500          45.000
G25  20676803.520    20676805.720         318.982         318.983   108657329.58908  84668056.22707        50.000          45.250
G26  23750411.040    23750415.800        -606.519        -606.518   124809259.37707  97254005.59806        43.750          39.750
G29  21183929.820    21183930.340         -64.526         -64.525   111322305.35808  86744653.78007        51.000          44.250
> 2017 03 29 13 10 30.0000000  0  6
G18  22320979.740    22320979.340        -662.109        -662.110   117297564.36907  91400681.68706        47.750          38.750
G20  20755446.560    20755446.200         168.557         168.559   109070608.17508  84990083.70507        49.500          44.250
G21  21126292.800    21126292.440        -207.384        -207.383   111019424.10008  86508629.39207        49.750          44.750
G25  20681601.400    20681603.660         320.679         320.680   108682542.77408  84687702.85607        49.750          44.250
G26  23741319.060    23741323.740        -605.815        -605.816   124761480.95907  97216775.69906        44.500          39.500
G29  21182964.760    21182965.180         -64.224         -64.223   111317233.36108  86740701.57007        51.250          44.000
> 2017 03 29 13 10 45.0000000  0  6
G18  22311052.840    22311052.700        -661.460        -661.461   117245398.85307  91360033.23606        47.750          39.250
G20  20757987.540    20757987.180         170.253         170.254   109083961.01308  85000488.50107        49.750          44.250
G21  21123190.680    21123190.380        -206.296        -206.296   111003122.09008  86495926.50907        49.500          45.000
G25  20686423.980    20686426.300         322.359         322.360   108707885.84508  84707450.69807        49.750          44.500
G26  23732237.000    23732241.600        -605.105        -605.105   124713754.47807  97179586.25806        45.250          38.750
G29  21182004.100    21182004.440         -63.877         -63.877   111312184.42308  86736767.33907        51.250          44.250
> 2017 03 29 13 11 00.0000000  0  6
G18  22301136.060    22301136.140        -660.830        -660.830   117193286.26707  91319426.04806        47.250          39.250
G20  20760554.220    20760553.860         171.923         171.924   109097448.81008  85010998.46107        49.500          44.250
G21  21120104.960    21120104.720        -205.249        -205.248   110986906.24808  86483290.77807        49.750          44.250
G25  20691272.600    20691274.980         324.068         324.069   108733365.75608  84727305.15807        50.000          44.750
G26  23723166.260    23723170.740        -604.404        -604.405   124666087.37507  97142443.07706        45.250          38.000
G29  21181049.200    21181049.440         -63.550         -63.550   111307165.61708  86732856.58707        51.500          44.000
> 2017 03 29 13 11 15.0000000  0  6
G18  22291228.220    22291228.480        -660.198        -660.197   117141220.58407  91278855.37606        46.500          39.000
G20  20763145.280    20763144.940         173.573         173.574   109111064.84308  85021608.35507        49.750          43.750
G21  21117034.400    21117034.180        -204.184        -204.184   110970770.02908  86470717.10807        50.000          43.250
G25  20696145.980    20696148.400         325.752         325.754   108758975.81208  84747261.02707        50.250          44.500
G26  23714105.680    23714110.000        -603.689        -603.688   124618473.54307  97105341.36706        44.750          38.000
G29  21180098.840    21180098.980         -63.185         -63.185   111302170.75608  86728964.49507        51.250          44.250
> 2017 03 29 13 11 30.0000000  0  6
G18  22281330.500    22281330.960        -659.542        -659.540   117089208.26907  91238326.31106        46.500          37.750
G20  20765761.900    20765761.540         175.262         175.263   109124815.17208  85032322.88407        49.500          44.000
G21  21113980.180    21113979.880        -203.101        -203.100   110954719.56108  86458210.25407        49.750          42.750
G25  20701045.300    20701047.720         327.455         327.456   108784722.08308  84767323.02607        50.250          45.250
G26  23705056.460    23705060.680        -602.987        -602.987   124570919.43407  97068286.24406        45.000          38.750
G29  21179154.220    21179154.280         -62.811         -62.810   111297206.08208  86725095.92307        51.250          44.250
> 2017 03 29 13 11 45.0000000  0  6
G18  22271445.500    22271446.140        -658.904        -658.905   117037263.09407  91197849.54606        46.500          37.500
G20  20768406.580    20768406.220         176.870         176.870   109138713.00708  85043152.35307        49.750          44.000
G21  21110944.820    21110944.300        -202.098        -202.098   110938768.04808  86445780.50607        50.000          42.500
G25  20705973.020    20705975.460         329.115         329.116   108810617.60508  84787501.34207        50.250          45.000
G26  23696021.220    23696025.400        -602.254        -602.254   124523438.71707  97031288.30006        44.750          39.500
G29  21178217.900    21178217.860         -62.522         -62.521   111292285.03808  86721261.34507        51.000          44.000
> 2017 03 29 13 12 00.0000000  0  6
G18  22261566.540    22261567.300        -658.226        -658.225   116985349.77307  91157397.61405        46.750          35.500
G20  20771072.540    20771072.180         178.604         178.604   109152722.61608  85054068.92207        50.000          43.500
G21  21107921.500    21107920.740        -201.029        -201.029   110922879.90208  86433400.12707        49.750          43.000
G25  20710922.360    20710924.840         330.833         330.834   108836626.65408  84807768.12607        50.000          45.750
G26  23686993.240    23686997.400        -601.476        -601.476   124475996.13607  96994320.04406        44.750          38.000
G29  21177283.100    21177283.000         -62.117         -62.116   111287372.25008  86717433.19407        51.000          43.750
> 2017 03 29 13 12 15.0000000  0  6
G18  22251697.920    22251698.680        -657.584        -657.584   116933490.54307  91116987.83606        47.250          36.250
G20  20773763.880    20773763.520         180.263         180.264   109166865.71108  85065089.50707        49.750          43.750
G21  21104914.340    21104913.400        -199.978        -199.977   110907076.86808  86421086.06607        50.250          42.000
G25  20715897.400    20715899.960         332.505         332.506   108862770.80508  84828140.18707        50.250          45.750
G26  23677976.700    23677980.880        -600.744        -600.744   124428613.85707  96957398.79206        45.250          38.500
G29  21176354.040    21176353.880         -61.775         -61.774   111282489.68108  86713628.59907        51.000          42.500
> 2017 03 29 13 12 30.0000000  0  6
G18  22241838.880    22241839.520        -656.941        -656.940   116881681.42107  91076617.10006        47.500          36.500
G20  20776479.780    20776479.440         181.900         181.901   109181137.87008  85076210.65307        49.750          43.750
G21  21101922.560    21101921.420        -198.916        -198.915   110891354.55808  86408834.91807        50.250          42.250
G25  20720897.340    20720899.980         334.178         334.179   108889045.67808  84848614.11207        50.500          45.250
G26  23668970.860    23668975.020        -600.021        -600.021   124381287.90307  96920521.44006        45.750          37.250
G29  21175429.900    21175429.720         -61.434         -61.433   111277633.21108  86709844.32707        50.500          42.750
> 2017 03 29 13 12 45.0000000  0  6
G18  22231989.600    22231990.080        -656.375        -656.384   116829923.22608  91036286.05306        48.250          37.000
G20  20779220.300    20779219.980         183.464         183.465   109195539.56008  85087432.74507        49.000          43.750
G21  21098946.220    21098944.900        -197.992        -197.991   110875713.40208  86396647.01006        49.750          41.500
G25  20725922.280    20725924.980         335.736         335.737   108915451.74208  84869190.25407        50.500          45.500
G26  23659976.000    23659979.980        -599.374        -599.374   124334019.30307  96883688.78506        45.750          37.500
G29  21174510.840    21174510.700         -61.188         -61.188   111272803.60508  86706080.98307        50.250          43.000
> 2017 03 29 13 13 00.0000000  0  6
G18  22222150.300    22222150.560        -655.653        -655.653   116778217.28208  90995995.71006        48.750          36.500
G20  20781985.600    20781985.320         185.158         185.159   109210071.50908  85098756.32607        49.250          43.500
G21  21095985.460    21095983.980        -196.858        -196.858   110860154.30708  86384523.04106        49.750          41.750
G25  20730972.320    20730975.040         337.508         337.508   108941989.63408  84889869.10807        50.500          45.750
G26  23650992.320    23650996.000        -598.582        -598.582   124286809.21307  96846901.71606        46.000          38.500
G29  21173597.100    21173597.020         -60.726         -60.726   111268002.03108  86702339.48107        50.250          42.750
> 2017 03 29 13 13 15.0000000  0  6
G18  22212321.540    22212321.500        -654.770        -654.770   116726566.14608  90955748.08906        49.000          36.250
G20  20784776.100    20784775.860         187.021         187.022   109224735.84808  85110183.07607        49.500          43.750
G21  21093040.680    21093039.120        -195.670        -195.670   110844679.34608  86372464.62707        49.750          42.750
G25  20736047.840    20736050.520         339.356         339.357   108968661.34908  84910652.24007        50.500          44.750
G26  23642020.260    23642023.660        -597.626        -597.625   124239660.18307  96810162.21206        45.500          38.000
G29  21172689.060    21172689.100         -60.189         -60.188   111263230.69808  86698621.53207        50.500          42.500
> 2017 03 29 13 13 30.0000000  0  6
G18  22202502.520    22202502.180        -654.238        -654.238   116674966.08308  90915540.27006        48.250          38.250
G20  20787590.980    20787590.780         188.554         188.554   109239528.32608  85121709.67207        49.500          43.500
G21  21090111.080    21090109.540        -194.728        -194.728   110829284.38408  86360468.55207        49.500          43.250
G25  20741148.000    20741150.620         340.877         340.878   108995462.54008  84931536.25207        50.500          45.000
G26  23633059.080    23633062.340        -597.037        -597.037   124192568.40207  96773467.30706        45.250          39.500
G29  21171786.020    21171786.120         -59.978         -59.977   111258485.58308  86694924.01907        50.750          42.500
> 2017 03 29 13 13 45.0000000  0  6
G18  22192694.040    22192693.420        -653.573        -653.572   116623421.39708  90875375.59906        48.250          38.250
G20  20790430.960    20790430.780         190.142         190.144   109254452.66908  85133339.01307        50.000          43.000
G21  21087197.420    21087195.940        -193.740        -193.739   110813973.26008  86348537.80607        50.000          42.750
G25  20746273.540    20746276.100         342.520         342.521   109022397.07108  84952524.17607        50.750          45.000
G26  23624109.620    23624112.900        -596.262        -596.260   124145538.22007  96736820.42506        45.000          39.500
G29  21170888.800    21170888.940         -59.637         -59.635   111253770.98308  86691250.29106        51.000          41.750
> 2017 03 29 13 14 00.0000000  0  6
G18  22182895.540    22182894.700        -652.941        -652.941   116571929.27807  90835251.88406        47.500          39.000
G20  20793295.440    20793295.260         191.767         191.767   109269505.56608  85145068.53507        50.000          43.250
G21  21084299.080    21084297.680        -192.725        -192.724   110798742.66908  86336669.80907        49.750          43.500
G25  20751423.780    20751426.320         344.149         344.150   109049461.47408  84973613.30407        50.750          45.500
G26  23615171.300    23615174.720        -595.551        -595.550   124098566.70607  96700219.24906        44.500          39.250
G29  21169996.800    21169996.960         -59.323         -59.323   111249083.77208  86687597.91706        51.250          41.750
> 2017 03 29 13 14 15.0000000  0  6
G18  22173107.800    22173106.920        -652.154        -652.153   116520494.11007  90795172.51206        47.000          39.500
G20  20796185.120    20796184.920         193.485         193.486   109284690.84508  85156901.20407        50.000          43.250
G21  21081416.860    21081415.520        -191.589        -191.588   110783596.70308  86324867.75207        49.500          43.750
G25  20756599.480    20756601.980         345.910         345.911   109076659.67408  84994806.68707        50.750          45.500
G26  23606244.940    23606248.540        -594.703        -594.701   124051658.33307  96663667.26206        44.250          38.000
G29  21169110.840    21169111.000         -58.851         -58.851   111244428.06108  86683970.11007        51.250          42.000
> 2017 03 29 13 14 30.0000000  0  6
G18  22163329.860    22163329.080        -651.603        -651.602   116469110.81207  90755133.57606        47.250          39.750
G20  20799098.980    20799098.760         195.002         195.003   109300003.06408  85168832.79907        50.250          43.500
G21  21078549.660    21078548.420        -190.750        -190.749   110768529.68408  86313127.22307        49.750          44.250
G25  20761799.560    20761802.040         347.398         347.399   109103986.01108  85016099.91207        50.500          45.500
G26  23597329.580    23597333.320        -594.077        -594.077   124004807.96607  96627160.48006        44.000          37.750
G29  21168229.900    21168230.060         -58.644         -58.644   111239798.73408  86680362.84506        51.250          41.250
> 2017 03 29 13 14 45.0000000  0  6
G18  22153562.160    22153561.540        -650.870        -650.871   116417781.45407  90715136.69006        47.750          38.750
G20  20802037.320    20802037.040         196.670         196.671   109315443.80108  85180864.53007        50.500          43.250
G21  21075697.860    21075696.680        -189.639        -189.638   110753543.32408  86301449.53607        50.000          44.000
G25  20767024.320    20767026.760         349.100         349.101   109131441.95808  85037494.13807        50.500          45.000
G26  23588425.620    23588429.420        -593.243        -593.244   123958017.63207  96590700.48806        44.750          37.250
G29  21167354.380    21167354.520         -58.225         -58.225   111235197.70108  86676777.63806        51.500          41.000
> 2017 03 29 13 15 00.0000000  0  6
G18  22143805.220    22143804.740        -650.098        -650.097   116366508.56707  90675183.80806        47.500          39.250
G20  20805000.500    20805000.140         198.353         198.354   109331015.03908  85192997.95807        50.500          43.250
G21  21072861.800    21072860.700        -188.559        -188.558   110738639.69608  86289836.32807        49.500          43.750
G25  20772274.100    20772276.520         350.797         350.798   109159029.60408  85058990.98007        50.500          45.250
G26  23579533.580    23579537.380        -592.394        -592.394   123911289.88607  96554289.26306        44.250          39.250
G29  21166484.680    21166484.820         -57.810         -57.811   111230627.23108  86673216.25206        51.250          40.750
> 2017 03 29 13 15 15.0000000  0  6
G18  22134059.840    22134059.440        -649.394        -649.393   116315296.42607  90635278.25106        47.250          39.500
G20  20807989.220    20807988.760         199.993         199.995   109346720.40908  85205235.90207        50.500          43.750
G21  21070042.160    21070041.140        -187.509        -187.509   110723822.49108  86278290.45507        48.500          44.250
G25  20777549.620    20777552.020         352.487         352.488   109186752.54708  85080593.25907        50.500          45.750
G26  23570654.280    23570658.000        -591.621        -591.621   123864628.88107  96517930.05106        43.250          39.500
G29  21165621.540    21165621.740         -57.422         -57.422   111226091.28408  86669681.76806        51.000          41.500
> 2017 03 29 13 15 30.0000000  0  6
G18  22124324.100    22124323.820        -648.714        -648.712   116264135.06407  90595412.25306        47.500          37.750
G20  20811001.480    20811000.920         201.625         201.626   109362549.57408  85217570.31007        50.250          43.750
G21  21067236.940    21067236.060        -186.487        -186.486   110709081.49108  86266803.95007        48.500          44.500
G25  20782848.900    20782851.280         354.102         354.103   109214600.34108  85102292.82007        50.750          46.250
G26  23561785.760    23561789.440        -590.849        -590.849   123818024.75607  96481615.15706        43.250          38.750
G29  21164763.080    21164763.320         -57.061         -57.060   111221579.86508  86666166.39307        50.250          42.000
> 2017 03 29 13 15 45.0000000  0  6
G18  22114598.780    22114598.600        -648.017        -648.016   116213028.60607  90555589.02306        47.000          39.000
G20  20814037.980    20814037.340         203.233         203.234   109378506.06608  85230003.93407        50.500          43.750
G21  21064446.860    21064446.200        -185.493        -185.492   110694420.23908  86255379.58707        48.500          44.750
G25  20788172.620    20788174.960         355.737         355.739   109242576.49708  85124092.40207        50.750          46.250
G26  23552928.800    23552932.520        -590.054        -590.053   123771481.50107  96445347.68106        43.250          39.000
G29  21163910.020    21163910.300         -56.678         -56.677   111217096.83408  86662673.10906        49.750          41.000
> 2017 03 29 13 16 00.0000000  0  6
G18  22104885.080    22104885.000        -647.265        -647.264   116161983.45107  90515813.57106        47.500          39.250
G20  20817099.840    20817099.140         204.923         204.924   109394595.98108  85242541.52007        50.000          43.500
G21  21061673.120    21061672.740        -184.430        -184.429   110679844.94608  86244022.18107        48.250          45.250
G25  20793521.900    20793524.220         357.411         357.412   109270686.99808  85145996.68007        50.750          45.750
G26  23544084.600    23544088.500        -589.206        -589.206   123725005.68107  96409132.77506        42.750          39.000
G29  21163063.580    21163063.880         -56.258         -56.258   111212648.58308  86659206.94606        48.500          41.750
> 2017 03 29 13 16 15.0000000  0  6
G18  22095182.260    22095182.220        -646.502        -646.501   116110995.24308  90476082.52406        48.250          38.250
G20  20820186.140    20820185.400         206.514         206.513   109410814.44208  85255179.27407        50.000          43.750
G21  21058914.820    21058914.760        -183.403        -183.402   110665350.91708  86232728.11007        48.750          45.000
G25  20798895.820    20798898.120         359.035         359.036   109298927.05608  85168001.89807        50.250          45.250
G26  23535252.400    23535256.560        -588.441        -588.440   123678593.07107  96372967.11906        43.750          39.000
G29  21162222.920    21162223.260         -55.877         -55.875   111208230.87407  86655764.51007        47.000          42.500
> 2017 03 29 13 16 30.0000000  0  6
G18  22085490.000    22085489.920        -645.829        -645.829   116060061.96208  90436394.27006        48.500          38.500
G20  20823296.360    20823295.620         208.117         208.118   109427158.77908  85267915.11907        50.000          43.750
G21  21056171.520    21056171.720        -182.402        -182.401   110650935.43808  86221495.25907        49.250          45.250
G25  20804293.840    20804296.180         360.671         360.672   109327293.94608  85190105.95507        50.000          45.250
G26  23526431.820    23526436.220        -587.696        -587.695   123632241.39807  96336848.93506        44.000          37.750
G29  21161387.500    21161387.940         -55.513         -55.510   111203841.06007  86652343.82206        47.000          41.750
> 2017 03 29 13 16 45.0000000  0  6
G18  22075808.500    22075808.360        -645.028        -645.028   116009184.84507  90396749.76506        47.750          38.750
G20  20826430.720    20826429.980         209.757         209.758   109443629.87908  85280749.72207        50.250          43.500
G21  21053443.380    21053443.760        -181.338        -181.337   110636599.31508  86210324.24607        49.750          45.000
G25  20809716.120    20809718.500         362.298         362.298   109355788.43508  85212309.42707        50.250          45.000
G26  23517623.160    23517627.680        -586.819        -586.819   123585952.07707  96300779.33806        44.250          37.250
G29  21160557.520    21160558.140         -55.117         -55.116   111199480.15507  86648945.66607        47.250          43.250
> 2017 03 29 13 17 00.0000000  0  6
G18  22066138.140    22066138.040        -644.232        -644.231   115958366.53907  90357151.07106        46.750          39.000
G20  20829589.580    20829588.860         211.498         211.499   109460229.79708  85293684.71707        50.000          44.000
G21  21050730.840    21050731.340        -180.230        -180.229   110622344.87308  86199216.87707        50.000          44.750
G25  20815163.060    20815165.460         364.036         364.037   109384412.49708  85234613.86407        50.500          45.000
G26  23508826.860    23508831.440        -585.969        -585.967   123539727.50307  96264760.19706        43.750          38.750
G29  21159733.560    21159734.340         -54.631         -54.630   111195150.79208  86645572.08407        49.250          43.250
> 2017 03 29 13 17 15.0000000  0  6
G18  22056479.020    22056479.080        -643.538        -643.537   115907608.05707  90317599.00306        46.750          37.250
G20  20832772.980    20832772.280         213.043         213.045   109476958.69808  85306720.21007        50.000          43.750
G21  21048033.940    21048034.480        -179.271        -179.270   110608172.41808  86188173.39707        50.000          44.000
G25  20820634.680    20820637.100         365.609         365.610   109413166.20908  85257019.33007        50.250          44.500
G26  23500043.060    23500047.660        -585.152        -585.152   123493568.42507  96228792.10106        44.500          39.000
G29  21158915.720    21158916.620         -54.308         -54.308   111190853.39208  86642223.43407        50.000          44.250
> 2017 03 29 13 17 30.0000000  0  6
G18  22046831.100    22046831.260        -642.842        -642.842   115856908.70707  90278093.01606        47.000          37.500
G20  20835980.720    20835980.040         214.632         214.633   109493815.55908  85319855.42207        49.750          43.750
G21  21045352.460    21045352.960        -178.274        -178.273   110594080.85908  86177192.97007        49.750          43.250
G25  20826130.780    20826133.220         367.202         367.203   109442048.49408  85279524.97107        50.000          44.750
G26  23491271.640    23491276.220        -584.351        -584.351   123447474.20207  96192874.54306        43.500          40.000
G29  21158103.860    21158104.840         -53.952         -53.951   111186587.21708  86638899.12407        50.750          45.000
> 2017 03 29 13 17 45.0000000  0  6
G18  22037194.040    22037194.180        -642.096        -642.097   115806266.22507  90238631.37806        47.500          38.000
G20  20839212.360    20839211.700         216.246         216.246   109510797.87708  85333088.38607        49.500          44.000
G21  21042685.940    21042686.280        -177.271        -177.270   110580067.70608  86166273.62907        50.000          43.000
G25  20831650.880    20831653.340         368.822         368.823   109471056.85208  85302128.87407        50.000          45.000
G26  23482512.260    23482516.780        -583.619        -583.618   123401443.02107  96157006.11906        43.500          38.750
G29  21157297.600    21157298.600         -53.552         -53.551   111182350.09308  86635597.45607        51.250          45.750
> 2017 03 29 13 18 00.0000000  0  6
G18  22027568.420    22027568.500        -641.320        -641.319   115755683.61808  90199216.36406        48.250          38.000
G20  20842468.320    20842467.680         217.859         217.860   109527908.10908  85346421.02107        49.250          44.250
G21  21040034.820    21040034.960        -176.261        -176.261   110566135.50808  86155417.38607        50.000          42.750
G25  20837195.420    20837197.920         370.449         370.450   109500193.69608  85324832.89207        50.000          45.250
G26  23473765.420    23473769.820        -582.775        -582.775   123355477.74806  96121189.03106        41.750          41.750
G29  21156497.440    21156498.400         -53.155         -53.154   111178144.76108  86632320.56907        51.250          46.000
> 2017 03 29 13 18 15.0000000  0  6
G18  22017954.560    22017954.560        -640.489        -640.489   115705162.29808  90159849.11406        48.750          38.250
G20  20845748.760    20845748.140         219.569         219.569   109545146.94308  85359853.87807        49.250          44.000
G21  21037399.300    21037399.160        -175.140        -175.140   110552285.13508  86144624.89107        50.250          42.750
G25  20842764.560    20842767.080         372.152         372.152   109529459.74808  85347637.59107        50.250          45.000
G26  23465031.320    23465035.600        -581.777        -581.777   123309579.65407  96085424.30306        42.750          39.000
G29  21155703.580    21155704.460         -52.678         -52.677   111173972.41308  86629069.38807        51.500          45.750
> 2017 03 29 13 18 30.0000000  0  6
G18  22008352.420    22008352.280        -639.761        -639.760   115654702.16808  90120529.53206        48.500          38.500
G20  20849053.600    20849053.000         221.117         221.118   109562513.96808  85373386.61507        49.500          44.250
G21  21034779.240    21034778.820        -174.163        -174.163   110538516.08508  86133895.77407        50.250          42.750
G25  20848358.180    20848360.720         373.710         373.711   109558854.34808  85370542.45907        50.250          44.250
G26  23456309.940    23456314.140        -581.012        -581.012   123263748.68907  96049711.84506        44.000          38.000
G29  21154915.940    21154916.720         -52.307         -52.305   111169832.67208  86625843.61207        51.500          45.000
> 2017 03 29 13 18 45.0000000  0  6
G18  21998761.440    21998761.160        -639.007        -639.007   115604300.43708  90081255.46606        48.500          39.500
G20  20852382.140    20852381.560         222.727         222.728   109580005.64508  85387016.47907        49.250          44.000
G21  21032174.080    21032173.380        -173.155        -173.155   110524825.18608  86123227.55107        50.250          43.250
G25  20853975.640    20853978.140         375.309         375.310   109588374.15508  85393544.87907        49.750          44.500
G26  23447600.780    23447604.920        -580.138        -580.138   123217982.00207  96014049.50106        44.250          39.250
G29  21154133.980    21154134.620         -51.932         -51.932   111165722.79808  86622641.11307        51.250          44.750
> 2017 03 29 13 19 00.0000000  0  6
G18  21989181.720    21989181.260        -638.612        -638.612   115553957.92808  90042027.54506        48.000          38.500
G20  20855734.500    20855733.960         223.942         223.943   109597622.48208  85400743.87407        49.000          45.250
G21  21029583.880    21029582.900        -172.516        -172.516   110511212.86808  86112620.56007        50.250          42.500
G25  20859616.980    20859619.440         376.572         376.573   109618019.50808  85416645.13907        49.250          44.500
G26  23438904.060    23438908.120        -579.752        -579.752   123172280.47207  95978437.92206        43.250          40.250
G29  21153357.820    21153358.300         -51.883         -51.882   111161643.37408  86619462.34307        51.000          43.750
> 2017 03 29 13 19 15.0000000  0  6
G18  21979613.360    21979612.700        -637.502        -637.502   115503675.14208  90002846.17006        48.500          38.250
G20  20859110.660    20859110.140         225.900         225.901   109615364.34308  85414568.69107        48.750          44.750
G21  21027008.620    21027007.420        -171.176        -171.175   110497679.04108  86102074.72107        50.250          43.250
G25  20865282.140    20865284.580         378.513         378.514   109647790.22408  85439843.08407        49.500          43.500
G26  23430219.840    23430223.860        -578.485        -578.485   123126644.58307  95942877.50506        44.000          39.500
G29  21152587.500    21152587.820         -51.123         -51.122   111157594.71608  86616307.53007        50.500          42.750
> 2017 03 29 13 19 30.0000000  0  6
G18  21970057.340    21970056.480        -636.687        -636.687   115453457.20108  89963715.30906        48.750          37.750
G20  20862511.500    20862511.040         227.545         227.546   109633235.91208  85428494.58007        48.500          44.500
G21  21024449.240    21024447.860        -170.130        -170.129   110484228.56508  86091593.83307        50.000          43.750
G25  20870972.040    20870974.460         380.114         380.115   109677690.98508  85463142.36107        49.750          43.750
G26  23421549.120    23421553.060        -577.625        -577.625   123081079.47607  95907372.23906        44.250          39.500
G29  21151823.960    21151824.160         -50.700         -50.699   111153581.82108  86613180.59106        50.000          41.000
> 2017 03 29 13 19 45.0000000  0  6
G18  21960513.180    21960512.120        -635.902        -635.902   115403301.50308  89924632.95706        48.500          38.750
G20  20865936.380    20865935.980         229.121         229.122   109651233.94408  85442519.00607        48.250          44.750
G21  21021905.100    21021903.620        -169.119        -169.118   110470858.27308  86081175.41107        49.750          44.250
G25  20876686.080    20876688.460         381.749         381.750   109707718.50708  85486540.40407        50.250          44.000
G26  23412891.300    23412895.220        -576.727        -576.727   123035582.44607  95871920.02806        43.750          39.250
G29  21151066.600    21151066.720         -50.283         -50.281   111149601.72308  86610079.21006        48.750          40.500
> 2017 03 29 13 20 00.0000000  0  6
G18  21950981.740    21950980.500        -634.660        -634.659   115353212.79308  89885602.80606        48.250          38.750
G20  20869386.080    20869385.780         231.182         231.183   109669362.52308  85456645.16807        48.000          44.500
G21  21019376.960    21019375.460        -167.700        -167.700   110457572.29008  86070822.69307        49.750          43.750
G25  20882425.060    20882427.360         383.775         383.776   109737876.86608  85510040.39407        50.250          44.250
G26  23404247.240    23404251.180        -575.439        -575.438   122990158.15807  95836524.44906        43.500          39.250
G29  21150316.280    21150316.360         -49.435         -49.434   111145658.91708  86607006.87706        48.000          39.500
> 2017 03 29 13 20 15.0000000  0  6
G18  21941461.920    21941460.540        -634.397        -634.396   115303185.29207  89846620.34706        47.500          37.500
G20  20872859.460    20872859.220         232.219         232.219   109687615.46108  85470868.23207        48.000          44.250
G21  21016863.640    21016862.180        -167.188        -167.188   110444364.42308  86060530.84907        49.750          43.500
G25  20888187.740    20888189.960         384.835         384.836   109768159.68108  85533637.36107        50.250          44.500
G26  23395615.840    23395619.880        -575.086        -575.086   122944800.77307  95801181.00506        43.000          38.500
G29  21149571.880    21149571.940         -49.533         -49.532   111141747.51307  86603958.99706        47.000          38.250
> 2017 03 29 13 20 30.0000000  0  6
G18  21931952.880    21931951.400        -633.544        -633.543   115253214.94107  89807682.40406        47.500          37.500
G20  20876355.640    20876355.500         233.893         233.894   109705988.31808  85485184.73007        48.000          44.250
G21  21014364.280    21014362.880        -166.095        -166.094   110431230.23508  86050296.41207        49.250          44.500
G25  20893973.240    20893975.400         386.501         386.502   109798562.37108  85557327.75107        50.000          44.750
G26  23386996.380    23387000.580        -574.180        -574.180   122899506.21907  95765886.56606        43.250          40.250
G29  21148832.580    21148832.660         -49.061         -49.060   111137863.19308  86600932.23106        48.500          39.500
> 2017 03 29 13 20 45.0000000  0  6
G18  21922455.420    21922453.940        -632.778        -632.777   115203305.83108  89768792.18606        48.000          38.250
G20  20879875.320    20879875.260         235.416         235.417   109724484.64207  85499597.44007        47.500          44.250
G21  21011879.620    21011878.340        -165.137        -165.136   110418173.56308  86040122.37407        49.000          44.250
G25  20899782.260    20899784.360         388.045         388.045   109829088.62208  85581114.42407        49.500          45.250
G26  23378389.740    23378394.100        -573.324        -573.324   122854278.80307  95730644.45006        44.500          40.500
G29  21148099.260    21148099.320         -48.681         -48.680   111134010.14308  86597929.84906        48.750          39.500
> 2017 03 29 13 21 00.0000000  0  6
G18  21912970.520    21912969.120        -631.962        -631.962   115153462.83108  89729953.48206        48.500          38.500
G20  20883419.320    20883419.360         236.990         236.992   109743108.82407  85514109.78507        47.750          44.500
G21  21009410.460    21009409.340        -164.134        -164.132   110405198.67808  86030012.05807        49.000          44.750
G25  20905615.580    20905617.700         389.657         389.658   109859742.68708  85605000.70507        49.750          45.250
G26  23369796.900    23369801.360        -572.440        -572.440   122809123.37407  95695458.41606        44.250          39.250
G29  21147372.800    21147372.860         -48.259         -48.258   111130193.04908  86594955.48506        50.000          40.750
> 2017 03 29 13 21 15.0000000  0  6
G18  21903498.360    21903497.060        -631.097        -631.096   115103686.83008  89691166.99206        49.000          38.500
G20  20886987.700    20886987.840         238.689         238.689   109761861.14307  85528721.96307        47.250          44.000
G21  21006956.900    21006955.980        -163.068        -163.067   110392306.04008  86019965.81907        49.500          44.750
G25  20911473.260    20911475.460         391.292         391.294   109890524.85608  85628986.79707        50.000          45.500
G26  23361217.940    23361222.540        -571.532        -571.532   122764040.74307  95660329.10906        45.000          40.250
G29  21146653.360    21146653.400         -47.771         -47.771   111126412.60808  86592009.68906        50.500          41.250
> 2017 03 29 13 21 30.0000000  0  6
G18  21894038.200    21894036.940        -630.240        -630.239   115053973.50908  89652429.34806        49.250          37.750
G20  20890579.520    20890579.720         240.259         240.259   109780736.52107  85543430.04107        47.750          43.000
G21  21004518.080    21004517.380        -162.050        -162.049   110379490.73708  86009979.85907        50.250          44.500
G25  20917354.360    20917356.620         392.890         392.891   109921430.06308  85653068.75907        50.500          44.750
G26  23352652.000    23352656.720        -570.583        -570.582   122719026.44507  95625253.01706        45.500          41.000
G29  21145940.020    21145940.060         -47.295         -47.294   111122664.14108  86589088.79807        51.000          42.000
> 2017 03 29 13 21 45.0000000  0  6
G18  21884588.400    21884587.100        -629.566        -629.566   115004314.49508  89613734.03906        48.750          38.250
G20  20894193.120    20894193.360         241.746         241.747   109799726.38708  85558227.32807        48.250          42.500
G21  21002092.400    21002091.840        -161.178        -161.177   110366744.21808  86000047.51007        50.250          44.000
G25  20923257.240    20923259.540         394.334         394.335   109952449.56008  85677239.77107        50.250          44.750
G26  23344097.520    23344102.380        -569.812        -569.812   122674072.19407  95590223.75306        45.250          40.750
G29  21145231.200    21145231.220         -47.011         -47.011   111118939.16908  86586186.22707        51.250          42.750
> 2017 03 29 13 22 00.0000000  0  6
G18  21875152.880    21875151.540        -628.696        -628.695   114954730.55808  89575097.19306        48.250          38.750
G20  20897832.380    20897832.640         243.348         243.349   109818850.94108  85573129.57107        48.250          42.250
G21  20999683.680    20999683.220        -160.165        -160.165   110354086.66908  85990184.49307        50.500          44.000
G25  20929185.680    20929188.000         395.926         395.926   109983603.43908  85701515.50607        50.250          44.500
G26  23335558.440    23335563.440        -568.876        -568.876   122629198.73407  95555257.45106        45.000          40.750
G29  21144530.800    21144530.820         -46.567         -46.567   111115258.33808  86583318.04407        51.500          43.000
> 2017 03 29 13 22 15.0000000  0  6
G18  21865729.340    21865728.120        -627.729        -627.729   114905209.88908  89536509.64606        48.750          39.500
G20  20901494.920    20901495.160         245.037         245.038   109838097.66008  85588127.01707        48.000          43.000
G21  20997289.640    20997289.180        -159.014        -159.013   110341505.89808  85980381.30207        50.250          44.500
G25  20935137.320    20935139.640         397.662         397.663   110014879.31608  85725886.29507        50.250          44.500
G26  23327032.560    23327037.640        -567.858        -567.858   122584394.28907  95520344.91506        44.500          41.250
G29  21143836.500    21143836.540         -45.978         -45.977   111111609.59608  86580474.86007        51.500          43.500
> 2017 03 29 13 22 30.0000000  0  6
G18  21856318.940    21856317.900        -626.934        -626.933   114855758.17708  89497975.85206        49.250          39.750
G20  20905181.720    20905181.920         246.543         246.543   109857471.79908  85603223.73007        48.250          43.500
G21  20994911.260    20994910.740        -158.068        -158.069   110329007.26908  85970642.12107        50.000          44.000
G25  20941113.120    20941115.460         399.170         399.171   110046282.30208  85750356.13507        50.250          44.500
G26  23318520.900    23318526.040        -566.996        -566.995   122539664.53307  95485490.55806        44.500          40.500
G29  21143149.400    21143149.440         -45.580         -45.579   111107998.50308  86577661.01407        51.250          43.500
> 2017 03 29 13 22 45.0000000  0  6
G18  21846921.300    21846920.400        -626.133        -626.132   114806373.20308  89459494.07706        49.250          40.000
G20  20908892.260    20908892.400         248.111         248.112   109876970.60608  85618417.59507        48.500          42.750
G21  20992548.000    20992547.400        -157.078        -157.078   110316587.98108  85960964.75907        50.000          44.000
G25  20947112.600    20947114.900         400.693         400.693   110077809.61108  85774922.83307        50.250          44.500
G26  23310022.940    23310028.160        -566.100        -566.100   122495007.19407  95450692.64106        44.500          39.750
G29  21142468.980    21142469.060         -45.186         -45.185   111104422.68008  86574874.64607        51.250          43.500
> 2017 03 29 13 23 00.0000000  0  6
G18  21837536.020    21837535.240        -625.184        -625.183   114757053.06408  89421062.81006        49.500          40.250
G20  20912626.060    20912626.100         249.799         249.801   109896591.50508  85633706.59707        48.250          42.250
G21  20990199.340    20990198.720        -156.008        -156.007   110304245.55308  85951347.28507        49.500          43.250
G25  20953135.200    20953137.520         402.342         402.343   110109458.64308  85799584.39007        49.500          44.750
G26  23301538.380    23301543.640        -565.069        -565.068   122450420.30207  95415949.61106        44.750          40.250
G29  21141794.860    21141794.980         -44.640         -44.639   111100879.92708  86572114.04907        51.000          43.250
> 2017 03 29 13 23 15.0000000  0  6
G18  21828163.880    21828163.140        -624.407        -624.406   114707801.71008  89382685.13606        49.250          39.500
G20  20916383.760    20916383.720         251.270         251.271   109916338.02108  85649093.48107        48.500          42.750
G21  20987865.980    20987865.340        -155.098        -155.098   110291983.67608  85941792.58407        49.250          43.000
G25  20959181.620    20959184.000         403.854         403.855   110141232.94408  85824343.57707        49.500          44.000
G26  23293067.980    23293073.220        -564.270        -564.268   122405907.88407  95381264.62606        45.000          41.000
G29  21141127.780    21141127.940         -44.272         -44.272   111097374.22508  86569382.32207        50.500          43.250
> 2017 03 29 13 23 30.0000000  0  6
G18  21818803.760    21818803.020        -623.543        -623.543   114658613.56108  89344356.71806        49.500          39.500
G20  20920164.240    20920164.140         252.823         252.824   109936204.20408  85664573.61507        48.500          42.000
G21  20985546.760    20985546.140        -154.084        -154.082   110279796.33508  85932295.95407        49.000          43.000
G25  20965250.660    20965253.120         405.403         405.404   110173126.31208  85849195.54807        50.250          44.250
G26  23284610.680    23284615.880        -563.332        -563.332   122361464.38307  95346633.31206        44.750          40.500
G29  21140466.660    21140466.880         -43.827         -43.826   111093899.86608  86566675.00907        50.500          42.000
> 2017 03 29 13 23 45.0000000  0  6
G18  21809457.140    21809456.380        -622.722        -622.721   114609496.28708  89306083.52606        48.750          40.500
G20  20923968.780    20923968.620         254.358         254.359   109956196.83708  85680152.29606        48.500          41.500
G21  20983242.980    20983242.440        -153.119        -153.118   110267690.43308  85922862.78007        48.500          43.750
G25  20971343.680    20971346.200         406.943         406.944   110205145.59508  85874145.59907        50.500          45.500
G26  23276167.880    23276173.060        -562.464        -562.463   122317097.21707  95312061.48806        43.500          40.500
G29  21139812.820    21139813.140         -43.415         -43.414   111090463.95008  86563997.65607        50.000          42.250
> 2017 03 29 13 24 00.0000000  0  6
G18  21800124.120    21800123.400        -621.519        -621.518   114560450.73308  89267866.20106        49.250          40.750
G20  20927797.500    20927797.280         256.278         256.279   109976316.49708  85695829.94707        48.000          42.000
G21  20980954.780    20980954.380        -151.800        -151.799   110255666.61808  85913493.55507        49.000          43.250
G25  20977460.780    20977463.340         408.857         408.858   110237291.23508  85899194.11807        50.500          45.000
G26  23267739.700    23267744.980        -561.150        -561.150   122272807.37907  95277549.94406        43.000          40.000
G29  21139166.440    21139166.880         -42.602         -42.601   111087067.41308  86561350.97906        49.750          41.000
> 2017 03 29 13 24 15.0000000  0  6
G18  21790804.000    21790803.360        -620.921        -620.920   114511473.05408  89229701.77606        49.250          41.250
G20  20931649.540    20931649.260         257.570         257.571   109996558.75708  85711603.13506        48.000          41.000
G21  20978681.380    20978681.160        -151.079        -151.078   110243720.68408  85904185.01507        48.750          44.250
G25  20983601.120    20983603.680         410.111         410.112   110269558.82408  85924337.66907        50.250          44.750
G26  23259325.420    23259330.840        -560.513        -560.512   122228591.09507  95243095.71606        43.500          38.500
G29  21138526.820    21138527.320         -42.428         -42.427   111083706.29308  86558731.89606        49.750          40.500
> 2017 03 29 13 24 30.0000000  0  6
G18  21781496.360    21781495.820        -620.124        -620.123   114462560.98908  89191588.48706        49.750          41.500
G20  20935524.340    20935524.040         259.060         259.060   110016920.75508  85727469.63106        48.250          40.250
G21  20976422.280    20976422.260        -150.149        -150.150   110231849.80108  85894934.96307        49.500          43.750
G25  20989764.100    20989766.660         411.586         411.587   110301945.44008  85949573.99107        50.000          44.750
G26  23250924.680    23250930.200        -559.595        -559.595   122184446.03107  95208696.97406        42.500          40.750
G29  21137893.440    21137893.980         -42.046         -42.045   111080378.07408  86556138.46606        49.750          40.250
> 2017 03 29 13 24 45.0000000  0  6
G18  21772201.080    21772200.660        -619.201        -619.201   114413713.87108  89153525.80306        49.500          40.750
G20  20939421.700    20939421.420         260.643         260.643   110037401.38907  85743428.55806        47.750          40.750
G21  20974177.320    20974177.400        -149.133        -149.132   110220052.85608  85885742.53307        49.500          44.000
G25  20995949.500    20995952.080         413.158         413.159   110334449.96208  85974902.17207        50.250          44.500
G26  23242537.400    23242542.960        -558.581        -558.580   122140371.56707  95174353.25706        44.500          38.250
G29  21137266.200    21137266.780         -41.543         -41.541   111077082.02608  86553570.11306        49.750          40.000
> 2017 03 29 13 25 00.0000000  0  6
G18  21762918.060    21762917.760        -618.461        -618.462   114364931.12408  89115513.27206        49.750          40.750
G20  20943341.420    20943341.140         262.057         262.057   110057999.57008  85759479.08706        48.250          40.250
G21  20971946.340    20971946.440        -148.263        -148.262   110208329.03708  85876607.08107        50.000          44.000
G25  21002157.160    21002159.720         414.583         414.584   110367071.27008  86000321.34007        50.500          44.250
G26  23234163.540    23234169.040        -557.791        -557.789   122096367.22507  95140064.17106        44.750          38.500
G29  21136644.920    21136645.520         -41.199         -41.198   111073817.38508  86551026.24106        50.250          39.750
> 2017 03 29 13 25 15.0000000  0  6
G18  21753649.720    21753649.500        -617.402        -617.400   114316225.48508  89077560.81306        49.250          41.000
G20  20947285.760    20947285.540         263.784         263.784   110078727.29508  85775630.55706        48.250          41.000
G21  20969731.620    20969731.640        -147.143        -147.142   110196690.28508  85867537.91707        50.250          44.250
G25  21008389.320    21008391.820         416.297         416.298   110399821.28708  86025840.79107        50.250          44.250
G26  23225805.440    23225810.860        -556.678        -556.678   122052445.45707  95105839.43206        44.250          38.500
G29  21136032.000    21136032.580         -40.581         -40.580   111070596.53508  86548516.49006        50.750          39.500
> 2017 03 29 13 25 30.0000000  0  6
G18  21744395.200    21744395.100        -616.729        -616.728   114267592.66208  89039665.10106        48.750          40.500
G20  20951253.860    20951253.680         265.117         265.118   110099579.88808  85791879.31206        48.000          39.250
G21  20967532.260    20967532.180        -146.380        -146.378   110185131.96608  85858531.42007        50.000          44.750
G25  21014645.040    21014647.460         417.598         417.599   110432695.05508  86051456.67707        50.250          44.000
G26  23217462.260    23217467.580        -555.997        -555.997   122008601.97307  95071675.69006        44.250          40.000
G29  21135426.620    21135427.120         -40.344         -40.344   111067415.08108  86546037.44306        50.750          40.000
> 2017 03 29 13 25 45.0000000  0  6
G18  21735152.800    21735152.820        -615.148        -615.148   114219023.87708  89001819.28206        48.750          39.250
G20  20955243.920    20955243.780         267.363         267.364   110120547.95308  85808218.05206        48.250          40.000
G21  20965346.460    20965346.240        -144.665        -144.664   110173644.83108  85849580.39607        50.000          44.500
G25  21020922.540    21020924.900         419.842         419.842   110465683.29308  86077161.77307        50.000          44.000
G26  23209132.360    23209137.540        -554.286        -554.286   121964828.03207  95037566.13006        44.250          39.750
G29  21134827.040    21134827.440         -39.169         -39.168   111064264.07508  86543582.11806        51.000          40.000
> 2017 03 29 13 26 00.0000000  0  6
G18  21725925.440    21725925.520        -615.396        -615.396   114170534.20908  88964035.14306        48.500          40.000
G20  20959258.740    20959258.580         267.764         267.765   110141645.95308  85824658.04006        48.500          40.000
G21  20963177.020    20963176.680        -144.819        -144.818   110162243.72208  85840696.40907        50.250          44.250
G25  21027224.560    21027226.920         420.219         420.220   110498800.52108  86102967.38707        50.000          44.750
G26  23200818.600    23200823.600        -554.464        -554.464   121921138.74007  95003522.53806        44.750          39.750
G29  21134236.140    21134236.360         -39.841         -39.842   111061158.50208  86541162.19806        51.000          39.250
> 2017 03 29 13 26 15.0000000  0  6
G18  21716709.300    21716709.320        -613.782        -613.782   114122103.46608  88926296.90606        49.250          39.750
G20  20963294.260    20963294.100         269.945         269.946   110162852.82008  85841182.85006        48.500          40.500
G21  20961019.960    20961019.480        -143.154        -143.153   110150907.53308  85831863.01107        50.250          44.500
G25  21033547.080    21033549.480         422.430         422.431   110532025.55908  86128857.01607        50.000          44.500
G26  23192517.040    23192521.840        -552.768        -552.767   121877513.52907  94969528.87706        44.000          39.000
G29  21133649.940    21133650.000         -38.680         -38.680   111058077.67108  86538761.55606        51.000          40.250
> 2017 03 29 13 26 30.0000000  0  6
G18  21707508.480    21707508.380        -613.029        -613.029   114073753.06408  88888621.27906        49.500          40.500
G20  20967354.600    20967354.400         271.368         271.369   110184189.95608  85857809.18206        48.500          39.500
G21  20958879.300    20958878.700        -142.316        -142.315   110139657.76608  85823096.95207        50.250          44.250
G25  21039894.220    21039896.680         423.832         423.833   110565379.88908  86154847.37907        50.250          44.250
G26  23184231.840    23184236.500        -552.002        -552.002   121833974.38307  94935602.31106        44.250          39.750
G29  21133072.620    21133072.520         -38.351         -38.350   111055043.40908  86536397.19906        50.750          39.750
> 2017 03 29 13 26 45.0000000  0  6
G18  21698321.120    21698320.860        -612.047        -612.047   114025473.03608  88851000.49606        49.500          41.000
G20  20971437.700    20971437.480         272.975         272.976   110205646.81508  85874528.79006        48.250          40.000
G21  20956753.020    20956752.340        -141.282        -141.281   110128483.71308  85814389.89207        50.250          44.500
G25  21046263.900    21046266.400         425.382         425.383   110598852.74408  86180930.08807        50.500          44.500
G26  23175961.100    23175965.680        -550.937        -550.937   121790511.20907  94901734.90306        44.750          40.000
G29  21132502.180    21132501.940         -37.800         -37.799   111052045.32908  86534061.02706        50.750          40.250
> 2017 03 29 13 27 00.0000000  0  6
G18  21689147.100    21689146.700        -611.187        -611.186   113977262.86208  88813434.13106        49.500          40.250
G20  20975543.380    20975543.120         274.471         274.473   110227222.11408  85891340.69706        48.500          41.000
G21  20954640.960    20954640.220        -140.339        -140.338   110117384.39508  85805741.06507        50.000          44.500
G25  21052655.920    21052658.420         426.857         426.858   110632442.80808  86207104.11907        50.750          44.500
G26  23167704.700    23167709.200        -549.921        -549.921   121747123.27407  94867926.14906        45.000          39.000
G29  21131938.480    21131938.180         -37.352         -37.351   111049082.64008  86531752.43406        50.500          40.000
> 2017 03 29 13 27 15.0000000  0  6
G18  21679986.900    21679986.420        -610.269        -610.267   113929125.39208  88775924.41606        49.250          41.000
G20  20979672.020    20979671.760         275.940         275.941   110248918.22508  85908246.74306        48.250          41.500
G21  20952543.580    20952542.820        -139.401        -139.400   110106362.35508  85797152.45207        50.000          44.250
G25  21059070.720    21059073.220         428.317         428.319   110666152.44108  86233371.33507        50.250          45.000
G26  23159463.220    23159467.640        -549.027        -549.026   121703813.49507  94834178.27306        45.750          38.500
G29  21131382.060    21131381.720         -36.958         -36.957   111046158.22608  86529473.66206        50.000          40.250
> 2017 03 29 13 27 30.0000000  0  6
G18  21670840.220    21670839.740        -609.349        -609.348   113881059.18208  88738470.21806        49.250          40.500
G20  20983823.300    20983823.020         277.477         277.478   110270733.18008  85925245.40306        48.250          41.500
G21  20950460.500    20950459.780        -138.412        -138.411   110095415.67208  85788622.55707        49.750          43.750
G25  21065507.840    21065510.360         429.849         429.850   110699979.48008  86259730.05407        49.750          44.750
G26  23151236.340    23151240.660        -547.994        -547.993   121660580.34407  94800490.10206        45.500          39.750
G29  21130832.560    21130832.260         -36.419         -36.419   111043270.35308  86527223.36906        49.500          40.250
> 2017 03 29 13 27 45.0000000  0  6
G18  21661707.000    21661706.540        -608.432        -608.432   113833063.89508  88701071.28706        49.250          39.750
G20  20987997.020    20987996.680         278.990         278.991   110292665.98008  85942335.87806        48.250          41.500
G21  20948391.600    20948390.900        -137.404        -137.403   110084543.50008  85780150.72907        50.000          43.500
G25  21071967.100    21071969.700         431.325         431.326   110733923.05208  86286179.56607        49.750          44.500
G26  23143024.000    23143028.220        -547.019        -547.018   121617423.51807  94766861.40606        46.000          39.750
G29  21130289.840    21130289.600         -35.943         -35.941   111040418.37908  86525001.03206        49.500          39.000
> 2017 03 29 13 28 00.0000000  0  6
G18  21652587.720    21652587.320        -607.492        -607.492   113785142.07808  88663729.61806        48.500          40.250
G20  20992193.560    20992193.220         280.527         280.528   110314718.89908  85959519.95906        48.500          41.500
G21  20946337.300    20946336.600        -136.476        -136.476   110073747.90008  85771738.59107        49.750          43.250
G25  21078448.900    21078451.600         432.900         432.900   110767985.17308  86312721.45207        49.500          44.250
G26  23134826.700    23134830.820        -545.989        -545.989   121574345.57507  94733294.18606        46.250          39.750
G29  21129754.420    21129754.300         -35.437         -35.437   111037604.91008  86522808.70506        49.500          39.500
> 2017 03 29 13 28 15.0000000  0  6
G18  21643483.020    21643482.640        -606.523        -606.522   113737296.94108  88626447.69606        48.250          40.750
G20  20996413.500    20996413.140         282.071         282.072   110336894.67807  85976799.77207        47.750          42.500
G21  20944298.120    20944297.380        -135.521        -135.521   110063031.88408  85763388.44207        49.500          43.250
G25  21084953.740    21084956.540         434.367         434.368   110802168.52208  86339357.79507        49.000          43.750
G26  23126645.060    23126649.080        -544.988        -544.987   121531349.87807  94699791.04606        45.250          39.000
G29  21129226.920    21129226.900         -34.945         -34.944   111034833.12308  86520648.87106        49.500          39.500
> 2017 03 29 13 28 30.0000000  0  6
G18  21634392.480    21634392.200        -605.550        -605.549   113689526.46408  88589223.94406        48.750          41.500
G20  21000656.220    21000655.860         283.617         283.618   110359190.29608  85994172.96106        48.250          41.750
G21  20942273.560    20942272.780        -134.469        -134.468   110052392.71808  85755098.18307        48.750          43.750
G25  21091481.100    21091484.000         435.920         435.921   110836470.34508  86366086.46207        48.750          44.000
G26  23118478.600    23118482.540        -543.948        -543.948   121488434.19007  94666350.25306        44.500          39.750
G29  21128706.900    21128706.980         -34.423         -34.423   111032100.57808  86518519.59906        49.750          39.500
> 2017 03 29 13 28 45.0000000  0  6
G18  21625316.380    21625316.280        -604.531        -604.531   113641832.04008  88552059.45606        49.250          41.000
G20  21004921.980    21004921.580         285.201         285.202   110381606.89007  86011640.42807        47.500          42.000
G21  20940263.780    20940263.040        -133.434        -133.434   110041831.57808  85746868.71107        48.750          43.500
G25  21098031.160    21098034.160         437.493         437.494   110870891.60008  86392908.19807        49.000          43.750
G26  23110327.560    23110331.480        -542.781        -542.780   121445600.12507  94632973.05406        45.250          38.500
G29  21128194.600    21128194.760         -33.801         -33.800   111029408.67308  86516422.00106        49.500          39.250
> 2017 03 29 13 29 00.0000000  0  6
G18  21616254.380    21616254.460        -603.652        -603.651   113594211.39808  88514952.45406        49.250          41.250
G20  21009210.140    21009209.760         286.636         286.637   110404141.43107  86029199.79207        47.000          42.000
G21  20938268.260    20938267.600        -132.525        -132.524   110031345.48308  85738697.70807        49.250          44.000
G25  21104603.360    21104606.460         438.885         438.886   110905429.19908  86419820.59207        49.250          44.500
G26  23102191.480    23102195.440        -541.908        -541.907   121402845.17807  94599657.50206        44.500          39.500
G29  21127689.480    21127689.720         -33.431         -33.431   111026754.70908  86514353.98106        49.500          38.750
> 2017 03 29 13 29 15.0000000  0  6
G18  21607206.500    21607206.700        -602.758        -602.758   113546664.58808  88477903.00006        49.750          41.250
G20  21013520.660    21013520.280         288.069         288.070   110426793.46307  86046850.70207        47.000          42.000
G21  20936286.920    20936286.400        -131.602        -131.601   110020934.07308  85730584.91907        49.250          44.250
G25  21111197.620    21111200.820         440.318         440.319   110940082.57108  86446823.19207        49.250          44.250
G26  23094070.420    23094074.420        -540.868        -540.868   121360169.36007  94566403.61906        45.000          38.000
G29  21127191.620    21127191.920         -32.966         -32.967   111024138.77908  86512315.59606        49.750          38.000
> 2017 03 29 13 29 30.0000000  0  6
G18  21598172.620    21598172.880        -601.753        -601.753   113499191.11008  88440910.68806        49.750          41.000
G20  21017853.320    21017852.960         289.598         289.598   110449561.96907  86064592.37407        46.750          42.250
G21  20934319.620    20934319.240        -130.625        -130.625   110010596.41208  85722529.58407        49.250          44.250
G25  21117813.740    21117817.020         441.807         441.807   110974850.62408  86473915.15607        49.500          44.000
G26  23085964.320    23085968.300        -539.856        -539.855   121317572.15607  94533210.99606        45.250          39.750
G29  21126700.840    21126701.180         -32.467         -32.466   111021560.19108  86510306.31006        50.000          37.500
> 2017 03 29 13 29 45.0000000  0  6
G18  21589153.400    21589153.700        -600.827        -600.826   113451794.56308  88403978.32007        48.750          42.250
G20  21022208.720    21022208.420         291.098         291.099   110472450.05807  86082427.24507        47.000          42.250
G21  20932366.980    20932366.700        -129.705        -129.704   110000335.70308  85714534.21207        49.500          44.500
G25  21124452.280    21124455.640         443.307         443.309   111009736.43208  86501098.87207        49.500          44.000
G26  23077873.920    23077877.800        -538.840        -538.839   121275057.26607  94500082.51206        45.000          38.500
G29  21126217.860    21126218.220         -31.933         -31.933   111019022.43208  86508328.83006        49.500          37.500
> 2017 03 29 13 30 00.0000000  0  6
G18  21580149.100    21580149.480        -599.805        -599.804   113404476.73908  88367107.26506        48.250          41.250
G20  21026587.060    21026586.820         292.644         292.644   110495458.70007  86100356.04607        46.750          42.000
G21  20930429.220    20930429.020        -128.714        -128.713   109990153.12908  85706599.73007        50.250          44.750
G25  21131113.460    21131116.860         444.814         444.815   111044740.99308  86528375.12307        49.500          43.750
G26  23069799.480    23069803.300        -537.775        -537.773   121232626.33107  94467019.45806        45.500          38.750
G29  21125742.900    21125743.240         -31.389         -31.389   111016526.89708  86506384.27305        49.000          35.500
> 2017 03 29 13 30 15.0000000  0  6
G18  21571161.280    21571161.860        -598.405        -598.404   113357246.01008  88330304.08706        48.750          41.500
G20  21030989.880    21030989.700         294.534         294.536   110518595.94307  86118385.06107        47.000          42.250
G21  20928507.940    20928507.760        -127.333        -127.334   109980056.76008  85698732.43007        50.500          44.750
G25  21137798.760    21137802.200         446.724         446.725   111079872.27108  86555750.11607        49.000          44.250
G26  23061742.660    23061746.420        -536.287        -536.286   121190287.87607  94434028.45106        45.500          40.000
G29  21125277.580    21125277.860         -30.486         -30.485   111014081.98608  86504479.14005        49.000          35.750
> 2017 03 29 13 30 30.0000000  0  6
G18  21562185.820    21562186.580        -598.010        -598.010   113310080.18508  88293551.49307        49.250          42.000
G20  21035412.900    21035412.740         295.483         295.483   110541839.15707  86136496.66207        46.750          42.500
G21  20926598.820    20926598.640        -126.899        -126.899   109970024.09608  85690914.77407        50.250          44.750
G25  21144503.820    21144507.300         447.611         447.611   111115107.49708  86583206.11007        49.000          45.000
G26  23053699.220    23053702.960        -535.825        -535.817   121148019.73207  94401092.21806        45.250          40.250
G29  21124817.660    21124817.840         -30.513         -30.513   111011665.38208  86502596.06205        48.500          35.750
> 2017 03 29 13 30 45.0000000  0  6
G18  21553224.480    21553225.320        -596.944        -596.944   113262988.30108  88256856.53306        49.500          41.500
G20  21039857.680    21039857.580         297.077         297.078   110565196.82507  86154697.43707        47.250          43.750
G21  20924703.460    20924703.280        -125.883        -125.883   109960063.71008  85683153.43407        50.250          44.250
G25  21151230.280    21151233.800         449.156         449.157   111150455.10708  86610749.67507        49.500          44.500
G26  23045670.900    23045674.660        -534.686        -534.685   121105830.91707  94368217.82306        46.000          39.500
G29  21124364.840    21124364.900         -29.940         -29.939   111009286.04108  86500742.02206        48.000          37.000
> 2017 03 29 13 31 00.0000000  0  6
G18  21544278.280    21544279.120        -595.936        -595.935   113215975.67908  88220223.30606        49.500          41.750
G20  21044325.080    21044325.080         298.576         298.575   110588673.45407  86172990.90607        47.750          43.500
G21  20922822.780    20922822.540        -124.891        -124.891   109950180.40708  85675452.15307        50.500          44.250
G25  21157979.040    21157982.560         450.648         450.649   111185919.67808  86638384.37707        49.750          44.000
G26  23037658.720    23037662.520        -533.635        -533.634   121063726.62407  94335409.29706        46.000          40.750
G29  21123920.040    21123920.020         -29.353         -29.351   111006948.94607  86498920.90605        47.000          34.750
> 2017 03 29 13 31 15.0000000  0  6
G18  21535343.640    21535344.440        -594.790        -594.789   113169023.60308  88183637.28506        49.750          41.000
G20  21048811.460    21048811.540         300.200         300.200   110612249.79508  86191362.07607        48.500          42.500
G21  20920953.120    20920952.780        -123.825        -123.824   109940354.77008  85667795.81307        50.500          44.500
G25  21164746.380    21164749.880         452.222         452.223   111221481.83008  86666095.11407        49.750          44.000
G26  23029659.100    23029662.940        -532.434        -532.434   121021688.09807  94302652.00906        46.000          40.750
G29  21123479.660    21123479.580         -28.752         -28.751   111004635.21407  86497117.96805        46.750          35.000
> 2017 03 29 13 31 30.0000000  0  6
G18  21526429.280    21526429.980        -594.046        -594.046   113122177.70508  88147133.99806        49.250          40.750
G20  21053325.460    21053325.560         301.437         301.437   110635971.04108  86209846.16607        48.750          43.000
G21  20919103.060    20919102.620        -123.084        -123.083   109930632.13808  85660219.72907        50.250          44.500
G25  21171540.860    21171544.340         453.453         453.454   111257186.63808  86693917.01807        49.500          43.750
G26  23021680.720    23021684.560        -531.584        -531.584   120979761.05507  94269981.60806        46.500          40.500
G29  21123052.400    21123052.280         -28.418         -28.416   111002390.41307  86495368.72905        46.250          34.000
> 2017 03 29 13 31 45.0000000  0  6
G18  21517525.520    21517526.080        -592.927        -592.926   113075387.58208  88110674.16606        48.750          40.750
G20  21057857.320    21057857.420         303.018         303.019   110659786.14208  86228403.37306        49.000          41.750
G21  20917262.920    20917262.400        -122.039        -122.038   109920961.71908  85652684.33007        49.750          44.250
G25  21178352.780    21178356.220         455.011         455.012   111292983.14108  86721810.36407        49.750          43.750
G26  23013713.940    23013717.820        -530.406        -530.405   120937895.06307  94237358.75706        45.500          40.000
G29  21122628.600    21122628.520         -27.818         -27.818   111000163.80407  86493633.70905        46.250          35.000
> 2017 03 29 13 32 00.0000000  0  6
G18  21508639.220    21508639.640        -591.942        -591.941   113028689.48108  88074286.03206        48.750          39.750
G20  21062413.900    21062413.960         304.507         304.508   110683730.86908  86247061.59807        49.250          42.250
G21  20915439.540    20915438.960        -121.070        -121.070   109911379.35908  85645217.53307        49.750          44.000
G25  21185188.960    21185192.300         456.470         456.471   111328907.03308  86749802.97307        50.000          44.000
G26  23005765.680    23005769.620        -529.356        -529.356   120896126.43307  94204811.78406        45.000          40.000
G29  21122215.220    21122215.180         -27.273         -27.272   110997991.86607  86491941.27405        46.750          35.250
> 2017 03 29 13 32 15.0000000  0  6
G18  21499768.000    21499768.220        -590.937        -590.937   112982070.78708  88037959.77206        49.250          39.500
G20  21066992.660    21066992.660         305.957         305.957   110707792.02108  86265810.54507        49.500          42.000
G21  20913630.460    20913629.820        -120.153        -120.152   109901872.21708  85637809.35807        50.000          44.000
G25  21192046.860    21192050.100         457.866         457.866   111364944.95008  86777884.42707        49.750          44.250
G26  22997833.460    22997837.500        -528.297        -528.297   120854442.41407  94172330.74106        45.000          39.250
G29  21121809.800    21121809.800         -26.791         -26.791   110995861.64107  86490281.34506        47.000          36.750
> 2017 03 29 13 32 30.0000000  0  6
G18  21490910.980    21490910.980        -589.925        -589.924   112935526.72308  88001691.68006        49.500          39.000
G20  21071592.540    21071592.480         307.432         307.432   110731964.13308  86284645.94306        49.250          41.250
G21  20911834.580    20911833.880        -119.225        -119.224   109892434.52508  85630455.32107        49.500          43.750
G25  21198925.420    21198928.560         459.320         459.321   111401091.44308  86806050.49107        49.750          44.250
G26  22989916.400    22989920.600        -527.199        -527.199   120812838.20607  94139911.88406        45.750          39.500
G29  21121411.400    21121411.460         -26.267         -26.267   110993768.14507  86488650.04006        47.250          36.750
> 2017 03 29 13 32 45.0000000  0  6
G18  21482070.020    21482069.760        -588.904        -588.903   112889066.97008  87965489.29006        49.500          39.500
G20  21076215.280    21076215.120         308.914         308.915   110756256.25708  86303574.86506        49.250          40.500
G21  20910053.660    20910052.900        -118.264        -118.263   109883075.59608  85623162.64907        49.250          43.500
G25  21205826.300    21205829.400         460.776         460.778   111437355.51008  86834308.18507        49.750          44.000
G26  22982016.360    22982020.700        -526.122        -526.121   120771323.42907  94107562.71506        45.000          41.750
G29  21121021.820    21121021.980         -25.698         -25.696   110991720.83808  86487054.73606        48.000          37.500
> 2017 03 29 13 33 00.0000000  0  6
G18  21473243.720    21473243.240        -587.885        -587.884   112842684.22408  87929346.89506        49.250          39.750
G20  21080859.340    21080859.080         310.351         310.352   110780660.57608  86322591.19706        49.250          40.750
G21  20908286.240    20908285.460        -117.309        -117.309   109873787.77808  85615925.37607        49.250          42.750
G25  21212748.040    21212751.120         462.208         462.210   111473729.25508  86862651.33007        50.000          44.000
G26  22974131.920    22974136.400        -525.043        -525.043   120729890.71707  94075277.49506        44.750          40.250
G29  21120639.640    21120639.880         -25.166         -25.165   110989712.25607  86485489.59406        47.750          37.500
> 2017 03 29 13 33 15.0000000  0  6
G18  21464433.100    21464432.440        -586.857        -586.856   112796383.84408  87893268.68006        49.000          40.000
G20  21085525.700    21085525.360         311.820         311.822   110805182.06108  86341698.83306        48.500          40.000
G21  20906533.240    20906532.460        -116.392        -116.391   109864576.09508  85608747.41607        49.000          43.750
G25  21219691.560    21219694.640         463.654         463.655   111510217.57308  86891083.75107        50.000          44.250
G26  22966264.160    22966268.740        -523.913        -523.912   120688545.59007  94043060.52306        45.000          40.500
G29  21120265.840    21120266.200         -24.635         -24.635   110987747.70808  86483958.78206        48.500          39.750
> 2017 03 29 13 33 30.0000000  0  6
G18  21455638.040    21455637.280        -585.904        -585.903   112750165.51508  87857254.39806        49.500          39.250
G20  21090214.160    21090213.740         313.188         313.189   110829819.79308  86360897.03706        48.500          39.250
G21  20904794.580    20904793.780        -115.518        -115.517   109855439.71408  85601628.14807        49.750          43.000
G25  21226656.720    21226659.740         464.937         464.937   111546819.44908  86919604.66307        50.000          43.750
G26  22958412.940    22958417.660        -522.949        -522.949   120647287.68407  94010911.50106        45.250          40.750
G29  21119900.360    21119900.780         -24.196         -24.195   110985826.75608  86482461.93706        49.250          38.750
> 2017 03 29 13 33 45.0000000  0  6
G18  21446858.260    21446857.420        -584.797        -584.796   112704027.59908  87821302.77706        49.250          39.500
G20  21094924.280    21094923.760         314.737         314.738   110854571.33608  86380183.93906        48.000          39.250
G21  20903069.860    20903069.020        -114.503        -114.501   109846376.46708  85594565.87007        50.000          43.750
G25  21233643.040    21233645.980         466.504         466.505   111583532.60608  86948212.27107        50.000          43.500
G26  22950578.020    22950582.880        -521.772        -521.772   120606115.31107  93978829.13306        45.750          41.000
G29  21119542.840    21119543.340         -23.546         -23.545   110983947.50608  86480997.58706        50.000          38.750
> 2017 03 29 13 34 00.0000000  0  6
G18  21438093.880    21438093.000        -583.804        -583.804   112657970.62608  87785414.24006        49.250          40.000
G20  21099656.080    21099655.500         316.168         316.168   110879437.00807  86399559.76906        47.500          39.500
G21  20901359.140    20901358.220        -113.636        -113.635   109837386.67008  85587560.82907        50.000          43.250
G25  21240650.540    21240653.400         467.839         467.840   111620357.13908  86976906.68707        50.000          43.500
G26  22942759.540    22942764.520        -520.737        -520.736   120565029.22907  93946813.97106        46.000          40.750
G29  21119193.380    21119193.920         -23.079         -23.079   110982110.36608  86479566.04006        49.750          39.000
> 2017 03 29 13 34 15.0000000  0  6
G18  21429345.660    21429344.740        -582.746        -582.745   112611998.43308  87749591.76406        49.250          40.500
G20  21104410.160    21104409.560         317.618         317.619   110904419.95107  86419026.96906        47.000          39.000
G21  20899663.060    20899662.060        -112.661        -112.661   109828473.60708  85580615.58907        50.250          44.000
G25  21247679.840    21247682.620         469.285         469.286   111657296.21008  87005690.33407        50.500          43.750
G26  22934958.220    22934963.300        -519.598        -519.598   120524033.12107  93914868.94406        46.250          41.750
G29  21118852.660    21118853.240         -22.489         -22.488   110980319.21108  86478170.33706        49.750          38.750
> 2017 03 29 13 34 30.0000000  0  6
G18  21420616.140    21420615.240        -581.813        -581.812   112566124.60608  87713845.92206        49.250          39.500
G20  21109189.040    21109188.480         318.954         318.956   110929533.35807  86438595.85106        47.000          38.750
G21  20897984.120    20897983.040        -111.851        -111.852   109819650.53108  85573740.45907        50.250          44.250
G25  21254733.420    21254736.120         470.568         470.569   111694362.81308  87034573.35607        50.500          44.000
G26  22927176.700    22927181.780        -518.617        -518.604   120483140.63407  93883004.68706        47.250          40.500
G29  21118523.260    21118523.820         -22.062         -22.060   110978587.46408  86476820.91306        49.750          38.000
> 2017 03 29 13 34 45.0000000  0  6
G18  21411896.740    21411895.940        -580.696        -580.694   112520304.02308  87678141.56406        49.500          40.750
G20  21113983.980    21113983.460         320.477         320.479   110954731.10307  86458230.43606        46.500          39.000
G21  20896313.600    20896312.480        -110.803        -110.803   109810871.54008  85566899.68407        50.500          45.000
G25  21261802.520    21261805.160         472.055         472.056   111731510.93708  87063519.90107        50.500          44.500
G26  22919406.360    22919411.340        -517.388        -517.388   120442306.39907  93851185.80106        47.500          40.750
G29  21118196.480    21118197.040         -21.437         -21.437   110976869.56408  86475482.28606        49.500          37.250
> 2017 03 29 13 35 00.0000000  0  6
G18  21403195.020    21403194.340        -579.378        -579.378   112474576.35508  87642509.60806        49.750          40.750
G20  21118802.440    21118801.980         322.159         322.160   110980052.50007  86477961.38406        46.000          39.250
G21  20894658.960    20894657.880        -109.613        -109.612   109802176.00108  85560123.93407        50.250          44.750
G25  21268894.600    21268897.220         473.709         473.711   111768779.77708  87092560.51707        50.250          44.250
G26  22911654.760    22911659.500        -516.023        -516.022   120401570.18108  93819443.29506        48.000          40.500
G29  21117879.880    21117880.440         -20.636         -20.636   110975205.18908  86474185.37206        49.250          37.500
